[
  {
    "id": "310000",
    "name": "上海市",
    "province": "上海市",
    "countryCode": "CN",
    "latitude": 31.231706,
    "longitude": 121.472644
  },
  {
    "id": "530900",
    "name": "临沧市",
    "province": "云南省",
    "countryCode": "CN",
    "latitude": 23.886567,
    "longitude": 100.08697
  },
  {
    "id": "530700",
    "name": "丽江市",
    "province": "云南省",
    "countryCode": "CN",
    "latitude": 26.872108,
    "longitude": 100.233026
  },
  {
    "id": "530500",
    "name": "保山市",
    "province": "云南省",
    "countryCode": "CN",
    "latitude": 25.111802,
    "longitude": 99.167133
  },
  {
    "id": "532900",
    "name": "大理白族自治州",
    "province": "云南省",
    "countryCode": "CN",
    "latitude": 25.589449,
    "longitude": 100.225668
  },
  {
    "id": "533100",
    "name": "德宏傣族景颇族自治州",
    "province": "云南省",
    "countryCode": "CN",
    "latitude": 24.436694,
    "longitude": 98.578363
  },
  {
    "id": "533300",
    "name": "怒江傈僳族自治州",
    "province": "云南省",
    "countryCode": "CN",
    "latitude": 25.850949,
    "longitude": 98.854304
  },
  {
    "id": "532600",
    "name": "文山壮族苗族自治州",
    "province": "云南省",
    "countryCode": "CN",
    "latitude": 23.36951,
    "longitude": 104.24401
  },
  {
    "id": "530100",
    "name": "昆明市",
    "province": "云南省",
    "countryCode": "CN",
    "latitude": 25.040609,
    "longitude": 102.712251
  },
  {
    "id": "530600",
    "name": "昭通市",
    "province": "云南省",
    "countryCode": "CN",
    "latitude": 27.336999,
    "longitude": 103.717216
  },
  {
    "id": "530300",
    "name": "曲靖市",
    "province": "云南省",
    "countryCode": "CN",
    "latitude": 25.501557,
    "longitude": 103.797851
  },
  {
    "id": "532300",
    "name": "楚雄彝族自治州",
    "province": "云南省",
    "countryCode": "CN",
    "latitude": 25.041988,
    "longitude": 101.546046
  },
  {
    "id": "530400",
    "name": "玉溪市",
    "province": "云南省",
    "countryCode": "CN",
    "latitude": 24.350461,
    "longitude": 102.543907
  },
  {
    "id": "532500",
    "name": "红河哈尼族彝族自治州",
    "province": "云南省",
    "countryCode": "CN",
    "latitude": 23.366775,
    "longitude": 103.384182
  },
  {
    "id": "532800",
    "name": "西双版纳傣族自治州",
    "province": "云南省",
    "countryCode": "CN",
    "latitude": 22.001724,
    "longitude": 100.797941
  },
  {
    "id": "533400",
    "name": "迪庆藏族自治州",
    "province": "云南省",
    "countryCode": "CN",
    "latitude": 27.826853,
    "longitude": 99.706463
  },
  {
    "id": "150900",
    "name": "乌兰察布市",
    "province": "内蒙古自治区",
    "countryCode": "CN",
    "latitude": 41.034126,
    "longitude": 113.114543
  },
  {
    "id": "150300",
    "name": "乌海市",
    "province": "内蒙古自治区",
    "countryCode": "CN",
    "latitude": 39.673734,
    "longitude": 106.825563
  },
  {
    "id": "152200",
    "name": "兴安盟",
    "province": "内蒙古自治区",
    "countryCode": "CN",
    "latitude": 46.076268,
    "longitude": 122.070317
  },
  {
    "id": "150200",
    "name": "包头市",
    "province": "内蒙古自治区",
    "countryCode": "CN",
    "latitude": 40.658168,
    "longitude": 109.840405
  },
  {
    "id": "150700",
    "name": "呼伦贝尔市",
    "province": "内蒙古自治区",
    "countryCode": "CN",
    "latitude": 49.215333,
    "longitude": 119.758168
  },
  {
    "id": "150100",
    "name": "呼和浩特市",
    "province": "内蒙古自治区",
    "countryCode": "CN",
    "latitude": 40.818311,
    "longitude": 111.670801
  },
  {
    "id": "150800",
    "name": "巴彦淖尔市",
    "province": "内蒙古自治区",
    "countryCode": "CN",
    "latitude": 40.757402,
    "longitude": 107.416959
  },
  {
    "id": "150400",
    "name": "赤峰市",
    "province": "内蒙古自治区",
    "countryCode": "CN",
    "latitude": 42.275317,
    "longitude": 118.956806
  },
  {
    "id": "150500",
    "name": "通辽市",
    "province": "内蒙古自治区",
    "countryCode": "CN",
    "latitude": 43.617429,
    "longitude": 122.263119
  },
  {
    "id": "150600",
    "name": "鄂尔多斯市",
    "province": "内蒙古自治区",
    "countryCode": "CN",
    "latitude": 39.817179,
    "longitude": 109.99029
  },
  {
    "id": "152500",
    "name": "锡林郭勒盟",
    "province": "内蒙古自治区",
    "countryCode": "CN",
    "latitude": 43.944018,
    "longitude": 116.090996
  },
  {
    "id": "152900",
    "name": "阿拉善盟",
    "province": "内蒙古自治区",
    "countryCode": "CN",
    "latitude": 38.844814,
    "longitude": 105.706422
  },
  {
    "id": "110000",
    "name": "北京市",
    "province": "北京市",
    "countryCode": "CN",
    "latitude": 39.904989,
    "longitude": 116.405285
  },
  {
    "id": "710400",
    "name": "台中市",
    "province": "台湾省",
    "countryCode": "TW",
    "latitude": 24.147736,
    "longitude": 120.673648
  },
  {
    "id": "710100",
    "name": "台北市",
    "province": "台湾省",
    "countryCode": "TW",
    "latitude": 25.037757,
    "longitude": 121.564559
  },
  {
    "id": "710300",
    "name": "台南市",
    "province": "台湾省",
    "countryCode": "TW",
    "latitude": 22.999899,
    "longitude": 120.227028
  },
  {
    "id": "712100",
    "name": "新北市",
    "province": "台湾省",
    "countryCode": "TW",
    "latitude": 25.011316,
    "longitude": 121.465912
  },
  {
    "id": "710700",
    "name": "桃园市",
    "province": "台湾省",
    "countryCode": "TW",
    "latitude": 24.993628,
    "longitude": 121.300979
  },
  {
    "id": "710200",
    "name": "高雄市",
    "province": "台湾省",
    "countryCode": "TW",
    "latitude": 22.627278,
    "longitude": 120.301435
  },
  {
    "id": "220200",
    "name": "吉林市",
    "province": "吉林省",
    "countryCode": "CN",
    "latitude": 43.843577,
    "longitude": 126.55302
  },
  {
    "id": "220300",
    "name": "四平市",
    "province": "吉林省",
    "countryCode": "CN",
    "latitude": 43.170344,
    "longitude": 124.370785
  },
  {
    "id": "222400",
    "name": "延边朝鲜族自治州",
    "province": "吉林省",
    "countryCode": "CN",
    "latitude": 42.904823,
    "longitude": 129.513228
  },
  {
    "id": "220700",
    "name": "松原市",
    "province": "吉林省",
    "countryCode": "CN",
    "latitude": 45.118243,
    "longitude": 124.823608
  },
  {
    "id": "220800",
    "name": "白城市",
    "province": "吉林省",
    "countryCode": "CN",
    "latitude": 45.619026,
    "longitude": 122.841114
  },
  {
    "id": "220600",
    "name": "白山市",
    "province": "吉林省",
    "countryCode": "CN",
    "latitude": 41.942505,
    "longitude": 126.427839
  },
  {
    "id": "220400",
    "name": "辽源市",
    "province": "吉林省",
    "countryCode": "CN",
    "latitude": 42.902692,
    "longitude": 125.145349
  },
  {
    "id": "220500",
    "name": "通化市",
    "province": "吉林省",
    "countryCode": "CN",
    "latitude": 41.721177,
    "longitude": 125.936501
  },
  {
    "id": "220100",
    "name": "长春市",
    "province": "吉林省",
    "countryCode": "CN",
    "latitude": 43.886841,
    "longitude": 125.3245
  },
  {
    "id": "511100",
    "name": "乐山市",
    "province": "四川省",
    "countryCode": "CN",
    "latitude": 29.582024,
    "longitude": 103.761263
  },
  {
    "id": "511000",
    "name": "内江市",
    "province": "四川省",
    "countryCode": "CN",
    "latitude": 29.58708,
    "longitude": 105.066138
  },
  {
    "id": "513400",
    "name": "凉山彝族自治州",
    "province": "四川省",
    "countryCode": "CN",
    "latitude": 27.886762,
    "longitude": 102.258746
  },
  {
    "id": "511300",
    "name": "南充市",
    "province": "四川省",
    "countryCode": "CN",
    "latitude": 30.795281,
    "longitude": 106.082974
  },
  {
    "id": "511500",
    "name": "宜宾市",
    "province": "四川省",
    "countryCode": "CN",
    "latitude": 28.760189,
    "longitude": 104.630825
  },
  {
    "id": "511900",
    "name": "巴中市",
    "province": "四川省",
    "countryCode": "CN",
    "latitude": 31.858809,
    "longitude": 106.753669
  },
  {
    "id": "510800",
    "name": "广元市",
    "province": "四川省",
    "countryCode": "CN",
    "latitude": 32.433668,
    "longitude": 105.829757
  },
  {
    "id": "511600",
    "name": "广安市",
    "province": "四川省",
    "countryCode": "CN",
    "latitude": 30.456398,
    "longitude": 106.633369
  },
  {
    "id": "510600",
    "name": "德阳市",
    "province": "四川省",
    "countryCode": "CN",
    "latitude": 31.127991,
    "longitude": 104.398651
  },
  {
    "id": "510100",
    "name": "成都市",
    "province": "四川省",
    "countryCode": "CN",
    "latitude": 30.659462,
    "longitude": 104.065735
  },
  {
    "id": "510400",
    "name": "攀枝花市",
    "province": "四川省",
    "countryCode": "CN",
    "latitude": 26.580446,
    "longitude": 101.716007
  },
  {
    "id": "510500",
    "name": "泸州市",
    "province": "四川省",
    "countryCode": "CN",
    "latitude": 28.889138,
    "longitude": 105.443348
  },
  {
    "id": "513300",
    "name": "甘孜藏族自治州",
    "province": "四川省",
    "countryCode": "CN",
    "latitude": 30.050663,
    "longitude": 101.963815
  },
  {
    "id": "511400",
    "name": "眉山市",
    "province": "四川省",
    "countryCode": "CN",
    "latitude": 30.048318,
    "longitude": 103.831788
  },
  {
    "id": "510700",
    "name": "绵阳市",
    "province": "四川省",
    "countryCode": "CN",
    "latitude": 31.46402,
    "longitude": 104.741722
  },
  {
    "id": "510300",
    "name": "自贡市",
    "province": "四川省",
    "countryCode": "CN",
    "latitude": 29.352765,
    "longitude": 104.773447
  },
  {
    "id": "512000",
    "name": "资阳市",
    "province": "四川省",
    "countryCode": "CN",
    "latitude": 30.122211,
    "longitude": 104.641917
  },
  {
    "id": "511700",
    "name": "达州市",
    "province": "四川省",
    "countryCode": "CN",
    "latitude": 31.209484,
    "longitude": 107.502262
  },
  {
    "id": "510900",
    "name": "遂宁市",
    "province": "四川省",
    "countryCode": "CN",
    "latitude": 30.513311,
    "longitude": 105.571331
  },
  {
    "id": "513200",
    "name": "阿坝藏族羌族自治州",
    "province": "四川省",
    "countryCode": "CN",
    "latitude": 31.899792,
    "longitude": 102.221374
  },
  {
    "id": "511800",
    "name": "雅安市",
    "province": "四川省",
    "countryCode": "CN",
    "latitude": 29.987722,
    "longitude": 103.001033
  },
  {
    "id": "120000",
    "name": "天津市",
    "province": "天津市",
    "countryCode": "CN",
    "latitude": 39.125596,
    "longitude": 117.190182
  },
  {
    "id": "640500",
    "name": "中卫市",
    "province": "宁夏回族自治区",
    "countryCode": "CN",
    "latitude": 37.514951,
    "longitude": 105.189568
  },
  {
    "id": "640300",
    "name": "吴忠市",
    "province": "宁夏回族自治区",
    "countryCode": "CN",
    "latitude": 37.986165,
    "longitude": 106.199409
  },
  {
    "id": "640400",
    "name": "固原市",
    "province": "宁夏回族自治区",
    "countryCode": "CN",
    "latitude": 36.004561,
    "longitude": 106.285241
  },
  {
    "id": "640200",
    "name": "石嘴山市",
    "province": "宁夏回族自治区",
    "countryCode": "CN",
    "latitude": 39.01333,
    "longitude": 106.376173
  },
  {
    "id": "640100",
    "name": "银川市",
    "province": "宁夏回族自治区",
    "countryCode": "CN",
    "latitude": 38.46637,
    "longitude": 106.278179
  },
  {
    "id": "341600",
    "name": "亳州市",
    "province": "安徽省",
    "countryCode": "CN",
    "latitude": 33.869338,
    "longitude": 115.782939
  },
  {
    "id": "341500",
    "name": "六安市",
    "province": "安徽省",
    "countryCode": "CN",
    "latitude": 31.752889,
    "longitude": 116.507676
  },
  {
    "id": "340100",
    "name": "合肥市",
    "province": "安徽省",
    "countryCode": "CN",
    "latitude": 31.86119,
    "longitude": 117.283042
  },
  {
    "id": "340800",
    "name": "安庆市",
    "province": "安徽省",
    "countryCode": "CN",
    "latitude": 30.50883,
    "longitude": 117.043551
  },
  {
    "id": "341800",
    "name": "宣城市",
    "province": "安徽省",
    "countryCode": "CN",
    "latitude": 30.945667,
    "longitude": 118.757995
  },
  {
    "id": "341300",
    "name": "宿州市",
    "province": "安徽省",
    "countryCode": "CN",
    "latitude": 33.633891,
    "longitude": 116.984084
  },
  {
    "id": "341700",
    "name": "池州市",
    "province": "安徽省",
    "countryCode": "CN",
    "latitude": 30.656037,
    "longitude": 117.489157
  },
  {
    "id": "340600",
    "name": "淮北市",
    "province": "安徽省",
    "countryCode": "CN",
    "latitude": 33.971707,
    "longitude": 116.794664
  },
  {
    "id": "340400",
    "name": "淮南市",
    "province": "安徽省",
    "countryCode": "CN",
    "latitude": 32.647574,
    "longitude": 117.018329
  },
  {
    "id": "341100",
    "name": "滁州市",
    "province": "安徽省",
    "countryCode": "CN",
    "latitude": 32.303627,
    "longitude": 118.316264
  },
  {
    "id": "340200",
    "name": "芜湖市",
    "province": "安徽省",
    "countryCode": "CN",
    "latitude": 31.326319,
    "longitude": 118.376451
  },
  {
    "id": "340300",
    "name": "蚌埠市",
    "province": "安徽省",
    "countryCode": "CN",
    "latitude": 32.939667,
    "longitude": 117.363228
  },
  {
    "id": "340700",
    "name": "铜陵市",
    "province": "安徽省",
    "countryCode": "CN",
    "latitude": 30.929935,
    "longitude": 117.816576
  },
  {
    "id": "341200",
    "name": "阜阳市",
    "province": "安徽省",
    "countryCode": "CN",
    "latitude": 32.896969,
    "longitude": 115.819729
  },
  {
    "id": "340500",
    "name": "马鞍山市",
    "province": "安徽省",
    "countryCode": "CN",
    "latitude": 31.689362,
    "longitude": 118.507906
  },
  {
    "id": "341000",
    "name": "黄山市",
    "province": "安徽省",
    "countryCode": "CN",
    "latitude": 29.709239,
    "longitude": 118.317325
  },
  {
    "id": "370500",
    "name": "东营市",
    "province": "山东省",
    "countryCode": "CN",
    "latitude": 37.434564,
    "longitude": 118.66471
  },
  {
    "id": "371300",
    "name": "临沂市",
    "province": "山东省",
    "countryCode": "CN",
    "latitude": 35.065282,
    "longitude": 118.326443
  },
  {
    "id": "371000",
    "name": "威海市",
    "province": "山东省",
    "countryCode": "CN",
    "latitude": 37.509691,
    "longitude": 122.116394
  },
  {
    "id": "371400",
    "name": "德州市",
    "province": "山东省",
    "countryCode": "CN",
    "latitude": 37.453968,
    "longitude": 116.307428
  },
  {
    "id": "371100",
    "name": "日照市",
    "province": "山东省",
    "countryCode": "CN",
    "latitude": 35.428588,
    "longitude": 119.461208
  },
  {
    "id": "370400",
    "name": "枣庄市",
    "province": "山东省",
    "countryCode": "CN",
    "latitude": 34.856424,
    "longitude": 117.557964
  },
  {
    "id": "370900",
    "name": "泰安市",
    "province": "山东省",
    "countryCode": "CN",
    "latitude": 36.194968,
    "longitude": 117.129063
  },
  {
    "id": "370100",
    "name": "济南市",
    "province": "山东省",
    "countryCode": "CN",
    "latitude": 36.675807,
    "longitude": 117.000923
  },
  {
    "id": "370800",
    "name": "济宁市",
    "province": "山东省",
    "countryCode": "CN",
    "latitude": 35.415393,
    "longitude": 116.587245
  },
  {
    "id": "370300",
    "name": "淄博市",
    "province": "山东省",
    "countryCode": "CN",
    "latitude": 36.814939,
    "longitude": 118.047648
  },
  {
    "id": "371600",
    "name": "滨州市",
    "province": "山东省",
    "countryCode": "CN",
    "latitude": 37.383542,
    "longitude": 118.016974
  },
  {
    "id": "370700",
    "name": "潍坊市",
    "province": "山东省",
    "countryCode": "CN",
    "latitude": 36.70925,
    "longitude": 119.107078
  },
  {
    "id": "370600",
    "name": "烟台市",
    "province": "山东省",
    "countryCode": "CN",
    "latitude": 37.539297,
    "longitude": 121.391382
  },
  {
    "id": "371500",
    "name": "聊城市",
    "province": "山东省",
    "countryCode": "CN",
    "latitude": 36.456013,
    "longitude": 115.980367
  },
  {
    "id": "371700",
    "name": "菏泽市",
    "province": "山东省",
    "countryCode": "CN",
    "latitude": 35.246531,
    "longitude": 115.469381
  },
  {
    "id": "370200",
    "name": "青岛市",
    "province": "山东省",
    "countryCode": "CN",
    "latitude": 36.082982,
    "longitude": 120.355173
  },
  {
    "id": "141000",
    "name": "临汾市",
    "province": "山西省",
    "countryCode": "CN",
    "latitude": 36.08415,
    "longitude": 111.517973
  },
  {
    "id": "141100",
    "name": "吕梁市",
    "province": "山西省",
    "countryCode": "CN",
    "latitude": 37.524366,
    "longitude": 111.134335
  },
  {
    "id": "140200",
    "name": "大同市",
    "province": "山西省",
    "countryCode": "CN",
    "latitude": 40.09031,
    "longitude": 113.295259
  },
  {
    "id": "140100",
    "name": "太原市",
    "province": "山西省",
    "countryCode": "CN",
    "latitude": 37.857014,
    "longitude": 112.549248
  },
  {
    "id": "140900",
    "name": "忻州市",
    "province": "山西省",
    "countryCode": "CN",
    "latitude": 38.41769,
    "longitude": 112.733538
  },
  {
    "id": "140700",
    "name": "晋中市",
    "province": "山西省",
    "countryCode": "CN",
    "latitude": 37.696495,
    "longitude": 112.736465
  },
  {
    "id": "140500",
    "name": "晋城市",
    "province": "山西省",
    "countryCode": "CN",
    "latitude": 35.497553,
    "longitude": 112.851274
  },
  {
    "id": "140600",
    "name": "朔州市",
    "province": "山西省",
    "countryCode": "CN",
    "latitude": 39.331261,
    "longitude": 112.433387
  },
  {
    "id": "140800",
    "name": "运城市",
    "province": "山西省",
    "countryCode": "CN",
    "latitude": 35.022778,
    "longitude": 111.003957
  },
  {
    "id": "140400",
    "name": "长治市",
    "province": "山西省",
    "countryCode": "CN",
    "latitude": 36.191112,
    "longitude": 113.113556
  },
  {
    "id": "140300",
    "name": "阳泉市",
    "province": "山西省",
    "countryCode": "CN",
    "latitude": 37.861188,
    "longitude": 113.583285
  },
  {
    "id": "441900",
    "name": "东莞市",
    "province": "广东省",
    "countryCode": "CN",
    "latitude": 23.046237,
    "longitude": 113.746262
  },
  {
    "id": "442000",
    "name": "中山市",
    "province": "广东省",
    "countryCode": "CN",
    "latitude": 22.521113,
    "longitude": 113.382391
  },
  {
    "id": "445300",
    "name": "云浮市",
    "province": "广东省",
    "countryCode": "CN",
    "latitude": 22.929801,
    "longitude": 112.044439
  },
  {
    "id": "440600",
    "name": "佛山市",
    "province": "广东省",
    "countryCode": "CN",
    "latitude": 23.028762,
    "longitude": 113.122717
  },
  {
    "id": "440100",
    "name": "广州市",
    "province": "广东省",
    "countryCode": "CN",
    "latitude": 23.125178,
    "longitude": 113.280637
  },
  {
    "id": "441300",
    "name": "惠州市",
    "province": "广东省",
    "countryCode": "CN",
    "latitude": 23.079404,
    "longitude": 114.412599
  },
  {
    "id": "445200",
    "name": "揭阳市",
    "province": "广东省",
    "countryCode": "CN",
    "latitude": 23.543778,
    "longitude": 116.355733
  },
  {
    "id": "441400",
    "name": "梅州市",
    "province": "广东省",
    "countryCode": "CN",
    "latitude": 24.299112,
    "longitude": 116.117582
  },
  {
    "id": "440500",
    "name": "汕头市",
    "province": "广东省",
    "countryCode": "CN",
    "latitude": 23.37102,
    "longitude": 116.708463
  },
  {
    "id": "441500",
    "name": "汕尾市",
    "province": "广东省",
    "countryCode": "CN",
    "latitude": 22.774485,
    "longitude": 115.364238
  },
  {
    "id": "440700",
    "name": "江门市",
    "province": "广东省",
    "countryCode": "CN",
    "latitude": 22.590431,
    "longitude": 113.094942
  },
  {
    "id": "441600",
    "name": "河源市",
    "province": "广东省",
    "countryCode": "CN",
    "latitude": 23.746266,
    "longitude": 114.697802
  },
  {
    "id": "440300",
    "name": "深圳市",
    "province": "广东省",
    "countryCode": "CN",
    "latitude": 22.547,
    "longitude": 114.085947
  },
  {
    "id": "441800",
    "name": "清远市",
    "province": "广东省",
    "countryCode": "CN",
    "latitude": 23.685022,
    "longitude": 113.051227
  },
  {
    "id": "440800",
    "name": "湛江市",
    "province": "广东省",
    "countryCode": "CN",
    "latitude": 21.274898,
    "longitude": 110.364977
  },
  {
    "id": "445100",
    "name": "潮州市",
    "province": "广东省",
    "countryCode": "CN",
    "latitude": 23.661701,
    "longitude": 116.632301
  },
  {
    "id": "440400",
    "name": "珠海市",
    "province": "广东省",
    "countryCode": "CN",
    "latitude": 22.224979,
    "longitude": 113.553986
  },
  {
    "id": "441200",
    "name": "肇庆市",
    "province": "广东省",
    "countryCode": "CN",
    "latitude": 23.051546,
    "longitude": 112.472529
  },
  {
    "id": "440900",
    "name": "茂名市",
    "province": "广东省",
    "countryCode": "CN",
    "latitude": 21.659751,
    "longitude": 110.919229
  },
  {
    "id": "441700",
    "name": "阳江市",
    "province": "广东省",
    "countryCode": "CN",
    "latitude": 21.859222,
    "longitude": 111.975107
  },
  {
    "id": "440200",
    "name": "韶关市",
    "province": "广东省",
    "countryCode": "CN",
    "latitude": 24.801322,
    "longitude": 113.591544
  },
  {
    "id": "450500",
    "name": "北海市",
    "province": "广西壮族自治区",
    "countryCode": "CN",
    "latitude": 21.473343,
    "longitude": 109.119254
  },
  {
    "id": "450100",
    "name": "南宁市",
    "province": "广西壮族自治区",
    "countryCode": "CN",
    "latitude": 22.82402,
    "longitude": 108.320004
  },
  {
    "id": "451400",
    "name": "崇左市",
    "province": "广西壮族自治区",
    "countryCode": "CN",
    "latitude": 22.404108,
    "longitude": 107.353926
  },
  {
    "id": "451300",
    "name": "来宾市",
    "province": "广西壮族自治区",
    "countryCode": "CN",
    "latitude": 23.733766,
    "longitude": 109.229772
  },
  {
    "id": "450200",
    "name": "柳州市",
    "province": "广西壮族自治区",
    "countryCode": "CN",
    "latitude": 24.314617,
    "longitude": 109.411703
  },
  {
    "id": "450300",
    "name": "桂林市",
    "province": "广西壮族自治区",
    "countryCode": "CN",
    "latitude": 25.274215,
    "longitude": 110.299121
  },
  {
    "id": "450400",
    "name": "梧州市",
    "province": "广西壮族自治区",
    "countryCode": "CN",
    "latitude": 23.474803,
    "longitude": 111.297604
  },
  {
    "id": "451200",
    "name": "河池市",
    "province": "广西壮族自治区",
    "countryCode": "CN",
    "latitude": 24.695899,
    "longitude": 108.062105
  },
  {
    "id": "450900",
    "name": "玉林市",
    "province": "广西壮族自治区",
    "countryCode": "CN",
    "latitude": 22.63136,
    "longitude": 110.154393
  },
  {
    "id": "451000",
    "name": "百色市",
    "province": "广西壮族自治区",
    "countryCode": "CN",
    "latitude": 23.897742,
    "longitude": 106.616285
  },
  {
    "id": "450800",
    "name": "贵港市",
    "province": "广西壮族自治区",
    "countryCode": "CN",
    "latitude": 23.0936,
    "longitude": 109.602146
  },
  {
    "id": "451100",
    "name": "贺州市",
    "province": "广西壮族自治区",
    "countryCode": "CN",
    "latitude": 24.414141,
    "longitude": 111.552056
  },
  {
    "id": "450700",
    "name": "钦州市",
    "province": "广西壮族自治区",
    "countryCode": "CN",
    "latitude": 21.967127,
    "longitude": 108.624175
  },
  {
    "id": "450600",
    "name": "防城港市",
    "province": "广西壮族自治区",
    "countryCode": "CN",
    "latitude": 21.614631,
    "longitude": 108.345478
  },
  {
    "id": "650100",
    "name": "乌鲁木齐市",
    "province": "新疆维吾尔自治区",
    "countryCode": "CN",
    "latitude": 43.792818,
    "longitude": 87.617733
  },
  {
    "id": "654000",
    "name": "伊犁哈萨克自治州",
    "province": "新疆维吾尔自治区",
    "countryCode": "CN",
    "latitude": 43.92186,
    "longitude": 81.317946
  },
  {
    "id": "653000",
    "name": "克孜勒苏柯尔克孜自治州",
    "province": "新疆维吾尔自治区",
    "countryCode": "CN",
    "latitude": 39.713431,
    "longitude": 76.172825
  },
  {
    "id": "650200",
    "name": "克拉玛依市",
    "province": "新疆维吾尔自治区",
    "countryCode": "CN",
    "latitude": 45.595886,
    "longitude": 84.873946
  },
  {
    "id": "652700",
    "name": "博尔塔拉蒙古自治州",
    "province": "新疆维吾尔自治区",
    "countryCode": "CN",
    "latitude": 44.903258,
    "longitude": 82.074778
  },
  {
    "id": "650400",
    "name": "吐鲁番市",
    "province": "新疆维吾尔自治区",
    "countryCode": "CN",
    "latitude": 42.947613,
    "longitude": 89.184078
  },
  {
    "id": "653200",
    "name": "和田地区",
    "province": "新疆维吾尔自治区",
    "countryCode": "CN",
    "latitude": 37.110687,
    "longitude": 79.92533
  },
  {
    "id": "650500",
    "name": "哈密市",
    "province": "新疆维吾尔自治区",
    "countryCode": "CN",
    "latitude": 42.833248,
    "longitude": 93.51316
  },
  {
    "id": "653100",
    "name": "喀什地区",
    "province": "新疆维吾尔自治区",
    "countryCode": "CN",
    "latitude": 39.467664,
    "longitude": 75.989138
  },
  {
    "id": "654200",
    "name": "塔城地区",
    "province": "新疆维吾尔自治区",
    "countryCode": "CN",
    "latitude": 46.746301,
    "longitude": 82.985732
  },
  {
    "id": "652800",
    "name": "巴音郭楞蒙古自治州",
    "province": "新疆维吾尔自治区",
    "countryCode": "CN",
    "latitude": 41.768552,
    "longitude": 86.150969
  },
  {
    "id": "652300",
    "name": "昌吉回族自治州",
    "province": "新疆维吾尔自治区",
    "countryCode": "CN",
    "latitude": 44.014577,
    "longitude": 87.304012
  },
  {
    "id": "652900",
    "name": "阿克苏地区",
    "province": "新疆维吾尔自治区",
    "countryCode": "CN",
    "latitude": 41.170712,
    "longitude": 80.265068
  },
  {
    "id": "654300",
    "name": "阿勒泰地区",
    "province": "新疆维吾尔自治区",
    "countryCode": "CN",
    "latitude": 47.848393,
    "longitude": 88.13963
  },
  {
    "id": "320100",
    "name": "南京市",
    "province": "江苏省",
    "countryCode": "CN",
    "latitude": 32.041544,
    "longitude": 118.767413
  },
  {
    "id": "320600",
    "name": "南通市",
    "province": "江苏省",
    "countryCode": "CN",
    "latitude": 32.016212,
    "longitude": 120.864608
  },
  {
    "id": "321300",
    "name": "宿迁市",
    "province": "江苏省",
    "countryCode": "CN",
    "latitude": 33.963008,
    "longitude": 118.275162
  },
  {
    "id": "320400",
    "name": "常州市",
    "province": "江苏省",
    "countryCode": "CN",
    "latitude": 31.772752,
    "longitude": 119.946973
  },
  {
    "id": "320300",
    "name": "徐州市",
    "province": "江苏省",
    "countryCode": "CN",
    "latitude": 34.261792,
    "longitude": 117.184811
  },
  {
    "id": "321000",
    "name": "扬州市",
    "province": "江苏省",
    "countryCode": "CN",
    "latitude": 32.393159,
    "longitude": 119.421003
  },
  {
    "id": "320200",
    "name": "无锡市",
    "province": "江苏省",
    "countryCode": "CN",
    "latitude": 31.574729,
    "longitude": 120.301663
  },
  {
    "id": "321200",
    "name": "泰州市",
    "province": "江苏省",
    "countryCode": "CN",
    "latitude": 32.484882,
    "longitude": 119.915176
  },
  {
    "id": "320800",
    "name": "淮安市",
    "province": "江苏省",
    "countryCode": "CN",
    "latitude": 33.597506,
    "longitude": 119.021265
  },
  {
    "id": "320900",
    "name": "盐城市",
    "province": "江苏省",
    "countryCode": "CN",
    "latitude": 33.377631,
    "longitude": 120.139998
  },
  {
    "id": "320500",
    "name": "苏州市",
    "province": "江苏省",
    "countryCode": "CN",
    "latitude": 31.299379,
    "longitude": 120.619585
  },
  {
    "id": "320700",
    "name": "连云港市",
    "province": "江苏省",
    "countryCode": "CN",
    "latitude": 34.600018,
    "longitude": 119.178821
  },
  {
    "id": "321100",
    "name": "镇江市",
    "province": "江苏省",
    "countryCode": "CN",
    "latitude": 32.204402,
    "longitude": 119.452753
  },
  {
    "id": "361100",
    "name": "上饶市",
    "province": "江西省",
    "countryCode": "CN",
    "latitude": 28.44442,
    "longitude": 117.971185
  },
  {
    "id": "360100",
    "name": "南昌市",
    "province": "江西省",
    "countryCode": "CN",
    "latitude": 28.676493,
    "longitude": 115.892151
  },
  {
    "id": "360800",
    "name": "吉安市",
    "province": "江西省",
    "countryCode": "CN",
    "latitude": 27.111699,
    "longitude": 114.986373
  },
  {
    "id": "360900",
    "name": "宜春市",
    "province": "江西省",
    "countryCode": "CN",
    "latitude": 27.8043,
    "longitude": 114.391136
  },
  {
    "id": "361000",
    "name": "抚州市",
    "province": "江西省",
    "countryCode": "CN",
    "latitude": 27.98385,
    "longitude": 116.358351
  },
  {
    "id": "360500",
    "name": "新余市",
    "province": "江西省",
    "countryCode": "CN",
    "latitude": 27.810834,
    "longitude": 114.930835
  },
  {
    "id": "360200",
    "name": "景德镇市",
    "province": "江西省",
    "countryCode": "CN",
    "latitude": 29.29256,
    "longitude": 117.214664
  },
  {
    "id": "360300",
    "name": "萍乡市",
    "province": "江西省",
    "countryCode": "CN",
    "latitude": 27.622946,
    "longitude": 113.852186
  },
  {
    "id": "360700",
    "name": "赣州市",
    "province": "江西省",
    "countryCode": "CN",
    "latitude": 25.85097,
    "longitude": 114.940278
  },
  {
    "id": "360600",
    "name": "鹰潭市",
    "province": "江西省",
    "countryCode": "CN",
    "latitude": 28.238638,
    "longitude": 117.033838
  },
  {
    "id": "130600",
    "name": "保定市",
    "province": "河北省",
    "countryCode": "CN",
    "latitude": 38.867657,
    "longitude": 115.482331
  },
  {
    "id": "130200",
    "name": "唐山市",
    "province": "河北省",
    "countryCode": "CN",
    "latitude": 39.635113,
    "longitude": 118.175393
  },
  {
    "id": "131000",
    "name": "廊坊市",
    "province": "河北省",
    "countryCode": "CN",
    "latitude": 39.523927,
    "longitude": 116.704441
  },
  {
    "id": "130700",
    "name": "张家口市",
    "province": "河北省",
    "countryCode": "CN",
    "latitude": 40.811901,
    "longitude": 114.884091
  },
  {
    "id": "130800",
    "name": "承德市",
    "province": "河北省",
    "countryCode": "CN",
    "latitude": 40.976204,
    "longitude": 117.939152
  },
  {
    "id": "130900",
    "name": "沧州市",
    "province": "河北省",
    "countryCode": "CN",
    "latitude": 38.310582,
    "longitude": 116.857461
  },
  {
    "id": "130100",
    "name": "石家庄市",
    "province": "河北省",
    "countryCode": "CN",
    "latitude": 38.045474,
    "longitude": 114.502461
  },
  {
    "id": "130300",
    "name": "秦皇岛市",
    "province": "河北省",
    "countryCode": "CN",
    "latitude": 39.942531,
    "longitude": 119.586579
  },
  {
    "id": "131100",
    "name": "衡水市",
    "province": "河北省",
    "countryCode": "CN",
    "latitude": 37.735097,
    "longitude": 115.665993
  },
  {
    "id": "130500",
    "name": "邢台市",
    "province": "河北省",
    "countryCode": "CN",
    "latitude": 37.0682,
    "longitude": 114.508851
  },
  {
    "id": "130400",
    "name": "邯郸市",
    "province": "河北省",
    "countryCode": "CN",
    "latitude": 36.612273,
    "longitude": 114.490686
  },
  {
    "id": "411200",
    "name": "三门峡市",
    "province": "河南省",
    "countryCode": "CN",
    "latitude": 34.777338,
    "longitude": 111.194099
  },
  {
    "id": "411500",
    "name": "信阳市",
    "province": "河南省",
    "countryCode": "CN",
    "latitude": 32.123274,
    "longitude": 114.075031
  },
  {
    "id": "411300",
    "name": "南阳市",
    "province": "河南省",
    "countryCode": "CN",
    "latitude": 32.999082,
    "longitude": 112.540918
  },
  {
    "id": "411600",
    "name": "周口市",
    "province": "河南省",
    "countryCode": "CN",
    "latitude": 33.620357,
    "longitude": 114.649653
  },
  {
    "id": "411400",
    "name": "商丘市",
    "province": "河南省",
    "countryCode": "CN",
    "latitude": 34.437054,
    "longitude": 115.650497
  },
  {
    "id": "410500",
    "name": "安阳市",
    "province": "河南省",
    "countryCode": "CN",
    "latitude": 36.103442,
    "longitude": 114.352482
  },
  {
    "id": "410400",
    "name": "平顶山市",
    "province": "河南省",
    "countryCode": "CN",
    "latitude": 33.735241,
    "longitude": 113.307718
  },
  {
    "id": "410200",
    "name": "开封市",
    "province": "河南省",
    "countryCode": "CN",
    "latitude": 34.797049,
    "longitude": 114.341447
  },
  {
    "id": "410700",
    "name": "新乡市",
    "province": "河南省",
    "countryCode": "CN",
    "latitude": 35.302616,
    "longitude": 113.883991
  },
  {
    "id": "410300",
    "name": "洛阳市",
    "province": "河南省",
    "countryCode": "CN",
    "latitude": 34.663041,
    "longitude": 112.434468
  },
  {
    "id": "411100",
    "name": "漯河市",
    "province": "河南省",
    "countryCode": "CN",
    "latitude": 33.575855,
    "longitude": 114.026405
  },
  {
    "id": "410900",
    "name": "濮阳市",
    "province": "河南省",
    "countryCode": "CN",
    "latitude": 35.768234,
    "longitude": 115.041299
  },
  {
    "id": "410800",
    "name": "焦作市",
    "province": "河南省",
    "countryCode": "CN",
    "latitude": 35.23904,
    "longitude": 113.238266
  },
  {
    "id": "411000",
    "name": "许昌市",
    "province": "河南省",
    "countryCode": "CN",
    "latitude": 34.022956,
    "longitude": 113.826063
  },
  {
    "id": "410100",
    "name": "郑州市",
    "province": "河南省",
    "countryCode": "CN",
    "latitude": 34.757975,
    "longitude": 113.665412
  },
  {
    "id": "411700",
    "name": "驻马店市",
    "province": "河南省",
    "countryCode": "CN",
    "latitude": 32.980169,
    "longitude": 114.024736
  },
  {
    "id": "410600",
    "name": "鹤壁市",
    "province": "河南省",
    "countryCode": "CN",
    "latitude": 35.748236,
    "longitude": 114.295444
  },
  {
    "id": "331100",
    "name": "丽水市",
    "province": "浙江省",
    "countryCode": "CN",
    "latitude": 28.451993,
    "longitude": 119.921786
  },
  {
    "id": "331000",
    "name": "台州市",
    "province": "浙江省",
    "countryCode": "CN",
    "latitude": 28.661378,
    "longitude": 121.428599
  },
  {
    "id": "330400",
    "name": "嘉兴市",
    "province": "浙江省",
    "countryCode": "CN",
    "latitude": 30.762653,
    "longitude": 120.750865
  },
  {
    "id": "330200",
    "name": "宁波市",
    "province": "浙江省",
    "countryCode": "CN",
    "latitude": 29.868388,
    "longitude": 121.549792
  },
  {
    "id": "330100",
    "name": "杭州市",
    "province": "浙江省",
    "countryCode": "CN",
    "latitude": 30.287459,
    "longitude": 120.153576
  },
  {
    "id": "330300",
    "name": "温州市",
    "province": "浙江省",
    "countryCode": "CN",
    "latitude": 28.000575,
    "longitude": 120.672111
  },
  {
    "id": "330500",
    "name": "湖州市",
    "province": "浙江省",
    "countryCode": "CN",
    "latitude": 30.867198,
    "longitude": 120.102398
  },
  {
    "id": "330600",
    "name": "绍兴市",
    "province": "浙江省",
    "countryCode": "CN",
    "latitude": 29.997117,
    "longitude": 120.582112
  },
  {
    "id": "330900",
    "name": "舟山市",
    "province": "浙江省",
    "countryCode": "CN",
    "latitude": 30.016028,
    "longitude": 122.106863
  },
  {
    "id": "330800",
    "name": "衢州市",
    "province": "浙江省",
    "countryCode": "CN",
    "latitude": 28.941708,
    "longitude": 118.87263
  },
  {
    "id": "330700",
    "name": "金华市",
    "province": "浙江省",
    "countryCode": "CN",
    "latitude": 29.089524,
    "longitude": 119.649506
  },
  {
    "id": "460200",
    "name": "三亚市",
    "province": "海南省",
    "countryCode": "CN",
    "latitude": 18.247872,
    "longitude": 109.508268
  },
  {
    "id": "460300",
    "name": "三沙市",
    "province": "海南省",
    "countryCode": "CN",
    "latitude": 16.831039,
    "longitude": 112.34882
  },
  {
    "id": "460400",
    "name": "儋州市",
    "province": "海南省",
    "countryCode": "CN",
    "latitude": 19.517486,
    "longitude": 109.576782
  },
  {
    "id": "460100",
    "name": "海口市",
    "province": "海南省",
    "countryCode": "CN",
    "latitude": 20.031971,
    "longitude": 110.33119
  },
  {
    "id": "420300",
    "name": "十堰市",
    "province": "湖北省",
    "countryCode": "CN",
    "latitude": 32.646907,
    "longitude": 110.787916
  },
  {
    "id": "421200",
    "name": "咸宁市",
    "province": "湖北省",
    "countryCode": "CN",
    "latitude": 29.832798,
    "longitude": 114.328963
  },
  {
    "id": "420900",
    "name": "孝感市",
    "province": "湖北省",
    "countryCode": "CN",
    "latitude": 30.926423,
    "longitude": 113.926655
  },
  {
    "id": "420500",
    "name": "宜昌市",
    "province": "湖北省",
    "countryCode": "CN",
    "latitude": 30.702636,
    "longitude": 111.290843
  },
  {
    "id": "422800",
    "name": "恩施土家族苗族自治州",
    "province": "湖北省",
    "countryCode": "CN",
    "latitude": 30.283114,
    "longitude": 109.48699
  },
  {
    "id": "420100",
    "name": "武汉市",
    "province": "湖北省",
    "countryCode": "CN",
    "latitude": 30.584355,
    "longitude": 114.298572
  },
  {
    "id": "421000",
    "name": "荆州市",
    "province": "湖北省",
    "countryCode": "CN",
    "latitude": 30.326857,
    "longitude": 112.23813
  },
  {
    "id": "420800",
    "name": "荆门市",
    "province": "湖北省",
    "countryCode": "CN",
    "latitude": 31.03542,
    "longitude": 112.204251
  },
  {
    "id": "420600",
    "name": "襄阳市",
    "province": "湖北省",
    "countryCode": "CN",
    "latitude": 32.042426,
    "longitude": 112.144146
  },
  {
    "id": "420700",
    "name": "鄂州市",
    "province": "湖北省",
    "countryCode": "CN",
    "latitude": 30.396536,
    "longitude": 114.890593
  },
  {
    "id": "421300",
    "name": "随州市",
    "province": "湖北省",
    "countryCode": "CN",
    "latitude": 31.717497,
    "longitude": 113.37377
  },
  {
    "id": "421100",
    "name": "黄冈市",
    "province": "湖北省",
    "countryCode": "CN",
    "latitude": 30.447711,
    "longitude": 114.879365
  },
  {
    "id": "420200",
    "name": "黄石市",
    "province": "湖北省",
    "countryCode": "CN",
    "latitude": 30.220074,
    "longitude": 115.077048
  },
  {
    "id": "431300",
    "name": "娄底市",
    "province": "湖南省",
    "countryCode": "CN",
    "latitude": 27.728136,
    "longitude": 112.008497
  },
  {
    "id": "430600",
    "name": "岳阳市",
    "province": "湖南省",
    "countryCode": "CN",
    "latitude": 29.37029,
    "longitude": 113.132855
  },
  {
    "id": "430700",
    "name": "常德市",
    "province": "湖南省",
    "countryCode": "CN",
    "latitude": 29.040225,
    "longitude": 111.691347
  },
  {
    "id": "430800",
    "name": "张家界市",
    "province": "湖南省",
    "countryCode": "CN",
    "latitude": 29.127401,
    "longitude": 110.479921
  },
  {
    "id": "431200",
    "name": "怀化市",
    "province": "湖南省",
    "countryCode": "CN",
    "latitude": 27.550082,
    "longitude": 109.97824
  },
  {
    "id": "430200",
    "name": "株洲市",
    "province": "湖南省",
    "countryCode": "CN",
    "latitude": 27.835806,
    "longitude": 113.151737
  },
  {
    "id": "431100",
    "name": "永州市",
    "province": "湖南省",
    "countryCode": "CN",
    "latitude": 26.434516,
    "longitude": 111.608019
  },
  {
    "id": "430300",
    "name": "湘潭市",
    "province": "湖南省",
    "countryCode": "CN",
    "latitude": 27.82973,
    "longitude": 112.944052
  },
  {
    "id": "433100",
    "name": "湘西土家族苗族自治州",
    "province": "湖南省",
    "countryCode": "CN",
    "latitude": 28.314296,
    "longitude": 109.739735
  },
  {
    "id": "430900",
    "name": "益阳市",
    "province": "湖南省",
    "countryCode": "CN",
    "latitude": 28.570066,
    "longitude": 112.355042
  },
  {
    "id": "430400",
    "name": "衡阳市",
    "province": "湖南省",
    "countryCode": "CN",
    "latitude": 26.900358,
    "longitude": 112.607693
  },
  {
    "id": "430500",
    "name": "邵阳市",
    "province": "湖南省",
    "countryCode": "CN",
    "latitude": 27.237842,
    "longitude": 111.46923
  },
  {
    "id": "431000",
    "name": "郴州市",
    "province": "湖南省",
    "countryCode": "CN",
    "latitude": 25.793589,
    "longitude": 113.032067
  },
  {
    "id": "430100",
    "name": "长沙市",
    "province": "湖南省",
    "countryCode": "CN",
    "latitude": 28.19409,
    "longitude": 112.982279
  },
  {
    "id": "820000",
    "name": "澳门特别行政区",
    "province": "澳门特别行政区",
    "countryCode": "MO",
    "latitude": 22.198951,
    "longitude": 113.54909
  },
  {
    "id": "622900",
    "name": "临夏回族自治州",
    "province": "甘肃省",
    "countryCode": "CN",
    "latitude": 35.599446,
    "longitude": 103.212006
  },
  {
    "id": "620100",
    "name": "兰州市",
    "province": "甘肃省",
    "countryCode": "CN",
    "latitude": 36.058039,
    "longitude": 103.823557
  },
  {
    "id": "620200",
    "name": "嘉峪关市",
    "province": "甘肃省",
    "countryCode": "CN",
    "latitude": 39.786529,
    "longitude": 98.277304
  },
  {
    "id": "620500",
    "name": "天水市",
    "province": "甘肃省",
    "countryCode": "CN",
    "latitude": 34.578529,
    "longitude": 105.724998
  },
  {
    "id": "621100",
    "name": "定西市",
    "province": "甘肃省",
    "countryCode": "CN",
    "latitude": 35.579578,
    "longitude": 104.626294
  },
  {
    "id": "620800",
    "name": "平凉市",
    "province": "甘肃省",
    "countryCode": "CN",
    "latitude": 35.54279,
    "longitude": 106.684691
  },
  {
    "id": "621000",
    "name": "庆阳市",
    "province": "甘肃省",
    "countryCode": "CN",
    "latitude": 35.734218,
    "longitude": 107.638372
  },
  {
    "id": "620700",
    "name": "张掖市",
    "province": "甘肃省",
    "countryCode": "CN",
    "latitude": 38.932897,
    "longitude": 100.455472
  },
  {
    "id": "620600",
    "name": "武威市",
    "province": "甘肃省",
    "countryCode": "CN",
    "latitude": 37.929996,
    "longitude": 102.634697
  },
  {
    "id": "623000",
    "name": "甘南藏族自治州",
    "province": "甘肃省",
    "countryCode": "CN",
    "latitude": 34.986354,
    "longitude": 102.911008
  },
  {
    "id": "620400",
    "name": "白银市",
    "province": "甘肃省",
    "countryCode": "CN",
    "latitude": 36.54568,
    "longitude": 104.173606
  },
  {
    "id": "620900",
    "name": "酒泉市",
    "province": "甘肃省",
    "countryCode": "CN",
    "latitude": 39.744023,
    "longitude": 98.510795
  },
  {
    "id": "620300",
    "name": "金昌市",
    "province": "甘肃省",
    "countryCode": "CN",
    "latitude": 38.514238,
    "longitude": 102.187888
  },
  {
    "id": "621200",
    "name": "陇南市",
    "province": "甘肃省",
    "countryCode": "CN",
    "latitude": 33.388598,
    "longitude": 104.929379
  },
  {
    "id": "350400",
    "name": "三明市",
    "province": "福建省",
    "countryCode": "CN",
    "latitude": 26.265444,
    "longitude": 117.635001
  },
  {
    "id": "350700",
    "name": "南平市",
    "province": "福建省",
    "countryCode": "CN",
    "latitude": 26.635627,
    "longitude": 118.178459
  },
  {
    "id": "350200",
    "name": "厦门市",
    "province": "福建省",
    "countryCode": "CN",
    "latitude": 24.490474,
    "longitude": 118.11022
  },
  {
    "id": "350900",
    "name": "宁德市",
    "province": "福建省",
    "countryCode": "CN",
    "latitude": 26.65924,
    "longitude": 119.527082
  },
  {
    "id": "350500",
    "name": "泉州市",
    "province": "福建省",
    "countryCode": "CN",
    "latitude": 24.908853,
    "longitude": 118.589421
  },
  {
    "id": "350600",
    "name": "漳州市",
    "province": "福建省",
    "countryCode": "CN",
    "latitude": 24.510897,
    "longitude": 117.661801
  },
  {
    "id": "350100",
    "name": "福州市",
    "province": "福建省",
    "countryCode": "CN",
    "latitude": 26.075302,
    "longitude": 119.306239
  },
  {
    "id": "350300",
    "name": "莆田市",
    "province": "福建省",
    "countryCode": "CN",
    "latitude": 25.431011,
    "longitude": 119.007558
  },
  {
    "id": "350800",
    "name": "龙岩市",
    "province": "福建省",
    "countryCode": "CN",
    "latitude": 25.091603,
    "longitude": 117.02978
  },
  {
    "id": "540500",
    "name": "山南市",
    "province": "西藏自治区",
    "countryCode": "CN",
    "latitude": 29.236023,
    "longitude": 91.766529
  },
  {
    "id": "540100",
    "name": "拉萨市",
    "province": "西藏自治区",
    "countryCode": "CN",
    "latitude": 29.660361,
    "longitude": 91.132212
  },
  {
    "id": "540200",
    "name": "日喀则市",
    "province": "西藏自治区",
    "countryCode": "CN",
    "latitude": 29.267519,
    "longitude": 88.885148
  },
  {
    "id": "540300",
    "name": "昌都市",
    "province": "西藏自治区",
    "countryCode": "CN",
    "latitude": 31.136875,
    "longitude": 97.178452
  },
  {
    "id": "540600",
    "name": "那曲市",
    "province": "西藏自治区",
    "countryCode": "CN",
    "latitude": 31.476004,
    "longitude": 92.060214
  },
  {
    "id": "542500",
    "name": "阿里地区",
    "province": "西藏自治区",
    "countryCode": "CN",
    "latitude": 32.503187,
    "longitude": 80.105498
  },
  {
    "id": "520200",
    "name": "六盘水市",
    "province": "贵州省",
    "countryCode": "CN",
    "latitude": 26.584643,
    "longitude": 104.846743
  },
  {
    "id": "520400",
    "name": "安顺市",
    "province": "贵州省",
    "countryCode": "CN",
    "latitude": 26.245544,
    "longitude": 105.932188
  },
  {
    "id": "520500",
    "name": "毕节市",
    "province": "贵州省",
    "countryCode": "CN",
    "latitude": 27.301693,
    "longitude": 105.28501
  },
  {
    "id": "520100",
    "name": "贵阳市",
    "province": "贵州省",
    "countryCode": "CN",
    "latitude": 26.578343,
    "longitude": 106.713478
  },
  {
    "id": "520300",
    "name": "遵义市",
    "province": "贵州省",
    "countryCode": "CN",
    "latitude": 27.706626,
    "longitude": 106.937265
  },
  {
    "id": "520600",
    "name": "铜仁市",
    "province": "贵州省",
    "countryCode": "CN",
    "latitude": 27.718346,
    "longitude": 109.191555
  },
  {
    "id": "522600",
    "name": "黔东南苗族侗族自治州",
    "province": "贵州省",
    "countryCode": "CN",
    "latitude": 26.583352,
    "longitude": 107.977488
  },
  {
    "id": "522700",
    "name": "黔南布依族苗族自治州",
    "province": "贵州省",
    "countryCode": "CN",
    "latitude": 26.258219,
    "longitude": 107.517156
  },
  {
    "id": "522300",
    "name": "黔西南布依族苗族自治州",
    "province": "贵州省",
    "countryCode": "CN",
    "latitude": 25.08812,
    "longitude": 104.897971
  },
  {
    "id": "210600",
    "name": "丹东市",
    "province": "辽宁省",
    "countryCode": "CN",
    "latitude": 40.124296,
    "longitude": 124.383044
  },
  {
    "id": "210200",
    "name": "大连市",
    "province": "辽宁省",
    "countryCode": "CN",
    "latitude": 38.91459,
    "longitude": 121.618622
  },
  {
    "id": "210400",
    "name": "抚顺市",
    "province": "辽宁省",
    "countryCode": "CN",
    "latitude": 41.875956,
    "longitude": 123.921109
  },
  {
    "id": "211300",
    "name": "朝阳市",
    "province": "辽宁省",
    "countryCode": "CN",
    "latitude": 41.576758,
    "longitude": 120.451176
  },
  {
    "id": "210500",
    "name": "本溪市",
    "province": "辽宁省",
    "countryCode": "CN",
    "latitude": 41.297909,
    "longitude": 123.770519
  },
  {
    "id": "210100",
    "name": "沈阳市",
    "province": "辽宁省",
    "countryCode": "CN",
    "latitude": 41.796767,
    "longitude": 123.429096
  },
  {
    "id": "211100",
    "name": "盘锦市",
    "province": "辽宁省",
    "countryCode": "CN",
    "latitude": 41.124484,
    "longitude": 122.06957
  },
  {
    "id": "210800",
    "name": "营口市",
    "province": "辽宁省",
    "countryCode": "CN",
    "latitude": 40.667432,
    "longitude": 122.235151
  },
  {
    "id": "211400",
    "name": "葫芦岛市",
    "province": "辽宁省",
    "countryCode": "CN",
    "latitude": 40.755572,
    "longitude": 120.856394
  },
  {
    "id": "211000",
    "name": "辽阳市",
    "province": "辽宁省",
    "countryCode": "CN",
    "latitude": 41.269402,
    "longitude": 123.18152
  },
  {
    "id": "211200",
    "name": "铁岭市",
    "province": "辽宁省",
    "countryCode": "CN",
    "latitude": 42.290585,
    "longitude": 123.844279
  },
  {
    "id": "210700",
    "name": "锦州市",
    "province": "辽宁省",
    "countryCode": "CN",
    "latitude": 41.119269,
    "longitude": 121.135742
  },
  {
    "id": "210900",
    "name": "阜新市",
    "province": "辽宁省",
    "countryCode": "CN",
    "latitude": 42.011796,
    "longitude": 121.648962
  },
  {
    "id": "210300",
    "name": "鞍山市",
    "province": "辽宁省",
    "countryCode": "CN",
    "latitude": 41.110626,
    "longitude": 122.995632
  },
  {
    "id": "500000",
    "name": "重庆市",
    "province": "重庆市",
    "countryCode": "CN",
    "latitude": 29.533155,
    "longitude": 106.504962
  },
  {
    "id": "610400",
    "name": "咸阳市",
    "province": "陕西省",
    "countryCode": "CN",
    "latitude": 34.333439,
    "longitude": 108.705117
  },
  {
    "id": "611000",
    "name": "商洛市",
    "province": "陕西省",
    "countryCode": "CN",
    "latitude": 33.868319,
    "longitude": 109.939776
  },
  {
    "id": "610900",
    "name": "安康市",
    "province": "陕西省",
    "countryCode": "CN",
    "latitude": 32.6903,
    "longitude": 109.029273
  },
  {
    "id": "610300",
    "name": "宝鸡市",
    "province": "陕西省",
    "countryCode": "CN",
    "latitude": 34.369315,
    "longitude": 107.14487
  },
  {
    "id": "610600",
    "name": "延安市",
    "province": "陕西省",
    "countryCode": "CN",
    "latitude": 36.596537,
    "longitude": 109.49081
  },
  {
    "id": "610800",
    "name": "榆林市",
    "province": "陕西省",
    "countryCode": "CN",
    "latitude": 38.290162,
    "longitude": 109.741193
  },
  {
    "id": "610700",
    "name": "汉中市",
    "province": "陕西省",
    "countryCode": "CN",
    "latitude": 33.077668,
    "longitude": 107.028621
  },
  {
    "id": "610500",
    "name": "渭南市",
    "province": "陕西省",
    "countryCode": "CN",
    "latitude": 34.499381,
    "longitude": 109.502882
  },
  {
    "id": "610100",
    "name": "西安市",
    "province": "陕西省",
    "countryCode": "CN",
    "latitude": 34.263161,
    "longitude": 108.948024
  },
  {
    "id": "610200",
    "name": "铜川市",
    "province": "陕西省",
    "countryCode": "CN",
    "latitude": 34.916582,
    "longitude": 108.979608
  },
  {
    "id": "632600",
    "name": "果洛藏族自治州",
    "province": "青海省",
    "countryCode": "CN",
    "latitude": 34.4736,
    "longitude": 100.242143
  },
  {
    "id": "630200",
    "name": "海东市",
    "province": "青海省",
    "countryCode": "CN",
    "latitude": 36.502916,
    "longitude": 102.10327
  },
  {
    "id": "632200",
    "name": "海北藏族自治州",
    "province": "青海省",
    "countryCode": "CN",
    "latitude": 36.959435,
    "longitude": 100.901059
  },
  {
    "id": "632500",
    "name": "海南藏族自治州",
    "province": "青海省",
    "countryCode": "CN",
    "latitude": 36.280353,
    "longitude": 100.619542
  },
  {
    "id": "632800",
    "name": "海西蒙古族藏族自治州",
    "province": "青海省",
    "countryCode": "CN",
    "latitude": 37.374663,
    "longitude": 97.370785
  },
  {
    "id": "632700",
    "name": "玉树藏族自治州",
    "province": "青海省",
    "countryCode": "CN",
    "latitude": 33.004049,
    "longitude": 97.008522
  },
  {
    "id": "630100",
    "name": "西宁市",
    "province": "青海省",
    "countryCode": "CN",
    "latitude": 36.623178,
    "longitude": 101.778916
  },
  {
    "id": "632300",
    "name": "黄南藏族自治州",
    "province": "青海省",
    "countryCode": "CN",
    "latitude": 35.517744,
    "longitude": 102.019988
  },
  {
    "id": "810000",
    "name": "香港特别行政区",
    "province": "香港特别行政区",
    "countryCode": "HK",
    "latitude": 22.320048,
    "longitude": 114.173355
  },
  {
    "id": "230900",
    "name": "七台河市",
    "province": "黑龙江省",
    "countryCode": "CN",
    "latitude": 45.771266,
    "longitude": 131.015584
  },
  {
    "id": "230700",
    "name": "伊春市",
    "province": "黑龙江省",
    "countryCode": "CN",
    "latitude": 47.724775,
    "longitude": 128.899396
  },
  {
    "id": "230800",
    "name": "佳木斯市",
    "province": "黑龙江省",
    "countryCode": "CN",
    "latitude": 46.809606,
    "longitude": 130.361634
  },
  {
    "id": "230500",
    "name": "双鸭山市",
    "province": "黑龙江省",
    "countryCode": "CN",
    "latitude": 46.643442,
    "longitude": 131.157304
  },
  {
    "id": "230100",
    "name": "哈尔滨市",
    "province": "黑龙江省",
    "countryCode": "CN",
    "latitude": 45.756967,
    "longitude": 126.642464
  },
  {
    "id": "232700",
    "name": "大兴安岭地区",
    "province": "黑龙江省",
    "countryCode": "CN",
    "latitude": 52.335262,
    "longitude": 124.711526
  },
  {
    "id": "230600",
    "name": "大庆市",
    "province": "黑龙江省",
    "countryCode": "CN",
    "latitude": 46.590734,
    "longitude": 125.11272
  },
  {
    "id": "231000",
    "name": "牡丹江市",
    "province": "黑龙江省",
    "countryCode": "CN",
    "latitude": 44.582962,
    "longitude": 129.618602
  },
  {
    "id": "231200",
    "name": "绥化市",
    "province": "黑龙江省",
    "countryCode": "CN",
    "latitude": 46.637393,
    "longitude": 126.99293
  },
  {
    "id": "230300",
    "name": "鸡西市",
    "province": "黑龙江省",
    "countryCode": "CN",
    "latitude": 45.300046,
    "longitude": 130.975966
  },
  {
    "id": "230400",
    "name": "鹤岗市",
    "province": "黑龙江省",
    "countryCode": "CN",
    "latitude": 47.332085,
    "longitude": 130.277487
  },
  {
    "id": "231100",
    "name": "黑河市",
    "province": "黑龙江省",
    "countryCode": "CN",
    "latitude": 50.249585,
    "longitude": 127.499023
  },
  {
    "id": "230200",
    "name": "齐齐哈尔市",
    "province": "黑龙江省",
    "countryCode": "CN",
    "latitude": 47.342081,
    "longitude": 123.95792
  }
]